{
"type": "FeatureCollection",
"name": "Landmark",
"crs": { "type": "name", "properties": { "name": "urn:ogc:def:crs:OGC:1.3:CRS84" } },
"features": [
{ "type": "Feature", "properties": { "Name": "Nursery Model" }, "geometry": { "type": "Point", "coordinates": [ 75.602225094903631, 15.368500814448002 ] } },
{ "type": "Feature", "properties": { "Name": "DeSSi Project" }, "geometry": { "type": "Point", "coordinates": [ 75.609303909517394, 15.364479505744894 ] } },
{ "type": "Feature", "properties": { "Name": "Nagavi" }, "geometry": { "type": "Point", "coordinates": [ 75.610527786079189, 15.361483922160263 ] } },
{ "type": "Feature", "properties": { "Name": "ILF Project" }, "geometry": { "type": "Point", "coordinates": [ 75.6027606850366, 15.366617478223823 ] } },
{ "type": "Feature", "properties": { "Name": "Proposed Solar Plant" }, "geometry": { "type": "Point", "coordinates": [ 75.613657488660536, 15.366399105734958 ] } },
{ "type": "Feature", "properties": { "Name": "Lake" }, "geometry": { "type": "Point", "coordinates": [ 75.606158734885199, 15.37102897487668 ] } },
{ "type": "Feature", "properties": { "Name": "Bird Sanctury" }, "geometry": { "type": "Point", "coordinates": [ 75.607741263029311, 15.369061493788848 ] } },
{ "type": "Feature", "properties": { "Name": "Hill Range" }, "geometry": { "type": "Point", "coordinates": [ 75.611613347077096, 15.369101561937162 ] } },
{ "type": "Feature", "properties": { "Name": "Hill Range" }, "geometry": { "type": "Point", "coordinates": [ 75.609411588833723, 15.373251772662877 ] } },
{ "type": "Feature", "properties": { "Name": "Play Ground" }, "geometry": { "type": "Point", "coordinates": [ 75.604237958664527, 15.371360961497221 ] } },
{ "type": "Feature", "properties": { "Name": "Goshala" }, "geometry": { "type": "Point", "coordinates": [ 75.605740199966021, 15.365266297856408 ] } },
{ "type": "Feature", "properties": { "Name": "Biodiversity Park" }, "geometry": { "type": "Point", "coordinates": [ 75.610682688522772, 15.371188499739528 ] } },
{ "type": "Feature", "properties": { "Name": "Morarji Desai School" }, "geometry": { "type": "Point", "coordinates": [ 75.602944269807026, 15.376177829272175 ] } },
{ "type": "Feature", "properties": { "Name": "Kalsapura" }, "geometry": { "type": "Point", "coordinates": [ 75.612502188554089, 15.381169089860492 ] } },
{ "type": "Feature", "properties": { "Name": "Gadag District Hospital" }, "geometry": { "type": "Point", "coordinates": [ 75.602597834861939, 15.377939710709336 ] } },
{ "type": "Feature", "properties": { "Name": "Nagavi" }, "geometry": { "type": "Point", "coordinates": [ 75.61224281517255, 15.364307800066424 ] } }
]
}
